null1642089678197, $GPGSA,A,1,,,,,,,,,,,,,,,,*32
1642089678197, $GPVTG,,T,,M,,N,,K,N*2C
1642089678197, $GPDTM,,,,,,,,*4A
1642089678197, $GPRMC,,V,,,,,,,,,,N,V*29
1642089678197, $GPGNS,,,,,,N,,,,,,,V*79
1642089678197, $GPGGA,,,,,,0,,,,,,,,*66
1642089679035, $GPGSV,1,1,01,29,32,213,34,1*58
1642089679037, $GPGSA,A,1,,,,,,,,,,,,,,,,*32
1642089679037, $GPVTG,,T,,M,,N,,K,N*2C
1642089679037, $GPDTM,,,,,,,,*4A
1642089679037, $GPRMC,,V,,,,,,,,,,N,V*29
1642089679037, $GPGNS,,,,,,N,,,,,,,V*79
1642089679037, $GPGGA,,,,,,0,,,,,,,,*66
1642089680034, $GPGSV,1,1,02,29,32,213,31,32,27,268,29,1*6D
1642089680038, $GPGSA,A,1,,,,,,,,,,,,,,,,*32
1642089680038, $GPVTG,,T,,M,,N,,K,N*2C
1642089680038, $GPDTM,,,,,,,,*4A
1642089680038, $GPRMC,,V,,,,,,,,,,N,V*29
1642089680038, $GPGNS,,,,,,N,,,,,,,V*79
1642089680038, $GPGGA,,,,,,0,,,,,,,,*66
1642089680981, $GPGSV,1,1,03,29,32,213,30,31,20,309,27,32,27,268,29,1*52
1642089680981, $GLGSV,1,1,01,88,45,046,25,1*4D
1642089680984, $GPGSA,A,1,,,,,,,,,,,,,,,,*32
1642089680984, $GPVTG,,T,,M,,N,,K,N*2C
1642089680984, $GPDTM,,,,,,,,*4A
1642089680984, $GPRMC,,V,,,,,,,,,,N,V*29
1642089680984, $GPGNS,,,,,,N,,,,,,,V*79
1642089680984, $GPGGA,,,,,,0,,,,,,,,*66
1642089681029, $GPGSA,A,1,,,,,,,,,,,,,,,,*32
1642089681029, $GPVTG,,T,,M,,N,,K,N*2C
1642089681029, $GPDTM,,,,,,,,*4A
1642089681029, $GPRMC,,V,,,,,,,,,,N,V*29
1642089681029, $GPGNS,,,,,,N,,,,,,,V*79
1642089681029, $GPGGA,,,,,,0,,,,,,,,*66
1642089682034, $GPGSV,1,1,03,29,32,213,31,31,20,309,28,32,27,268,29,1*5C
1642089682034, $GLGSV,1,1,01,88,45,046,25,1*4D
1642089682034, $GBGSV,1,1,01,27,21,196,30,1*4C
1642089682038, $GPGSA,A,1,,,,,,,,,,,,,,,,*32
1642089682038, $GPVTG,,T,,M,,N,,K,N*2C
1642089682038, $GPDTM,,,,,,,,*4A
1642089682038, $GPRMC,,V,,,,,,,,,,N,V*29
1642089682038, $GPGNS,,,,,,N,,,,,,,V*79
1642089682038, $GPGGA,,,,,,0,,,,,,,,*66
1642089683034, $GPGSV,1,1,03,29,32,213,31,31,20,309,26,32,27,268,26,1*5D
1642089683034, $GLGSV,1,1,03,79,82,050,22,88,45,046,25,81,59,150,22,1*4F
1642089683034, $GBGSV,1,1,03,27,21,196,29,19,04,285,24,13,30,092,23,1*48
1642089683037, $GPGSA,A,1,,,,,,,,,,,,,,,,*32
1642089683037, $GPVTG,,T,,M,,N,,K,N*2C
1642089683037, $GPDTM,,,,,,,,*4A
1642089683037, $GPRMC,,V,,,,,,,,,,N,V*29
1642089683037, $GPGNS,,,,,,N,,,,,,,V*79
1642089683037, $GPGGA,,,,,,0,,,,,,,,*66
1642089684034, $GPGSV,2,1,05,02,41,109,19,12,71,087,20,29,32,213,31,31,20,309,25,1*68
1642089684034, $GPGSV,2,2,05,32,27,268,24,1*5F
1642089684034, $GLGSV,1,1,03,79,82,050,20,88,45,046,25,81,59,150,23,1*4C
1642089684034, $GBGSV,1,1,03,27,21,196,28,19,04,285,26,13,30,092,23,1*4B
1642089684039, $GPGSA,A,1,,,,,,,,,,,,,,,,*32
1642089684039, $GPVTG,,T,,M,,N,,K,N*2C
1642089684039, $GPDTM,,,,,,,,*4A
1642089684039, $GPRMC,,V,,,,,,,,,,N,V*29
1642089684039, $GPGNS,,,,,,N,,,,,,,V*79
1642089684039, $GPGGA,,,,,,0,,,,,,,,*66
1642089685035, $GPGSV,2,1,06,02,41,109,19,12,71,087,20,19,05,047,19,29,32,213,30,1*61
1642089685035, $GPGSV,2,2,06,31,20,309,25,32,27,268,24,1*61
1642089685035, $GLGSV,1,1,03,79,82,050,19,88,45,046,25,81,59,150,23,1*46
1642089685035, $GBGSV,1,1,04,27,21,196,28,19,04,285,26,13,30,092,24,08,33,080,20,1*79
1642089685069, $GNGSA,A,3,02,12,19,29,31,32,,,,,,,1.3,1.0,0.9,1*3A
1642089685069, $GNGSA,A,3,79,81,88,,,,,,,,,,1.3,1.0,0.9,2*3F
1642089685069, $GNGSA,A,3,08,13,,,,,,,,,,,1.3,1.0,0.9,4*34
1642089685069, $GNVTG,,T,,M,0.0,N,0.0,K,A*3D
1642089685069, $GNDTM,P90,,0000.000025,S,00000.000000,W,0.970,W84*45
1642089685069, $GNRMC,160127.00,A,5422.883499,N,01837.213448,E,0.0,,130122,2.9,E,A,V*77
1642089685069, $GNGNS,160127.00,5422.883499,N,01837.213448,E,AANANN,11,1.0,21.5,34.5,,,V*18
1642089685069, $GNGGA,160127.00,5422.883499,N,01837.213448,E,1,11,1.0,21.5,M,34.5,M,,*47
1642089686034, $GPGSV,2,1,06,02,41,109,19,12,71,087,20,19,05,047,18,29,32,213,30,1*60
1642089686034, $GPGSV,2,2,06,31,20,309,24,32,27,268,24,1*60
1642089686034, $GLGSV,1,1,03,79,82,050,19,88,45,046,25,81,59,150,24,1*41
1642089686034, $GBGSV,1,1,04,27,21,196,28,19,04,285,26,13,30,092,24,08,33,080,20,1*79
1642089686045, $GNGSA,A,3,02,12,19,29,31,32,,,,,,,1.3,1.0,0.9,1*3A
1642089686045, $GNGSA,A,3,79,81,88,,,,,,,,,,1.3,1.0,0.9,2*3F
1642089686045, $GNGSA,A,3,08,13,,,,,,,,,,,1.3,1.0,0.9,4*34
1642089686045, $GNVTG,,T,,M,0.0,N,0.0,K,A*3D
1642089686045, $GNDTM,P90,,0000.000025,S,00000.000000,W,0.970,W84*45
1642089686045, $GNRMC,160128.00,A,5422.882479,N,01837.220228,E,0.0,,130122,2.9,E,A,V*77
1642089686045, $GNGNS,160128.00,5422.882479,N,01837.220228,E,AANANN,11,1.0,-3.5,34.5,,,V*05
1642089686045, $GNGGA,160128.00,5422.882479,N,01837.220228,E,1,11,1.0,-3.5,M,34.5,M,,*5A
1642089687036, $GPGSV,2,1,06,02,41,109,20,12,71,087,20,19,05,047,18,29,32,213,30,1*6A
1642089687036, $GPGSV,2,2,06,31,20,309,26,32,27,268,23,1*65
1642089687036, $GLGSV,1,1,03,79,82,050,18,88,45,046,27,81,59,150,25,1*43
1642089687036, $GBGSV,1,1,04,27,21,196,27,19,04,285,27,13,30,092,26,08,33,080,20,1*75
1642089687046, $GNGSA,A,3,02,12,19,29,31,32,,,,,,,1.3,1.0,0.9,1*3A
1642089687046, $GNGSA,A,3,79,81,88,,,,,,,,,,1.3,1.0,0.9,2*3F
1642089687046, $GNGSA,A,3,08,13,,,,,,,,,,,1.3,1.0,0.9,4*34
1642089687046, $GNVTG,,T,,M,0.0,N,0.0,K,A*3D
1642089687046, $GNDTM,P90,,0000.000025,S,00000.000000,W,0.970,W84*45
1642089687046, $GNRMC,160129.00,A,5422.883504,N,01837.213837,E,0.0,,130122,2.9,E,A,V*78
1642089687046, $GNGNS,160129.00,5422.883504,N,01837.213837,E,AANANN,11,1.0,14.3,34.5,,,V*17
1642089687046, $GNGGA,160129.00,5422.883504,N,01837.213837,E,1,11,1.0,14.3,M,34.5,M,,*48
1642089688036, $GPGSV,2,1,06,02,41,109,19,12,71,087,20,19,05,047,18,29,32,213,30,1*60
1642089688036, $GPGSV,2,2,06,31,20,309,26,32,27,268,26,1*60
1642089688036, $GLGSV,1,1,03,79,82,050,17,88,45,046,27,81,59,150,23,1*4A
1642089688036, $GBGSV,1,1,04,27,21,196,29,19,04,285,27,13,30,092,24,08,33,080,20,1*79
1642089688047, $GNGSA,A,3,02,12,19,29,31,32,,,,,,,1.3,1.0,0.9,1*3A
1642089688047, $GNGSA,A,3,79,81,88,,,,,,,,,,1.3,1.0,0.9,2*3F
1642089688047, $GNGSA,A,3,08,13,,,,,,,,,,,1.3,1.0,0.9,4*34
1642089688047, $GNVTG,,T,,M,0.0,N,0.0,K,A*3D
1642089688047, $GNDTM,P90,,0000.000025,S,00000.000000,W,0.970,W84*45
1642089688047, $GNRMC,160130.00,A,5422.884949,N,01837.211425,E,0.0,,130122,2.9,E,A,V*7F
1642089688047, $GNGNS,160130.00,5422.884949,N,01837.211425,E,AANANN,11,1.0,33.9,34.5,,,V*1F
1642089688047, $GNGGA,160130.00,5422.884949,N,01837.211425,E,1,11,1.0,33.9,M,34.5,M,,*40
1642089689030, $GPGSV,2,1,06,02,41,109,20,12,71,087,20,19,05,047,18,29,32,213,31,1*6B
1642089689030, $GPGSV,2,2,06,31,20,309,24,32,27,268,29,1*6D
1642089689030, $GLGSV,1,1,03,79,82,050,16,88,45,046,27,81,59,150,20,1*48
1642089689030, $GBGSV,1,1,04,27,21,196,29,19,04,285,27,13,30,092,24,08,33,080,20,1*79
1642089689033, $GNGSA,A,3,02,12,19,29,31,32,,,,,,,1.3,1.0,0.9,1*3A
1642089689033, $GNGSA,A,3,79,81,88,,,,,,,,,,1.3,1.0,0.9,2*3F
1642089689033, $GNGSA,A,3,08,13,,,,,,,,,,,1.3,1.0,0.9,4*34
1642089689033, $GNVTG,,T,,M,0.0,N,0.0,K,A*3D
1642089689033, $GNDTM,P90,,0000.000025,S,00000.000000,W,0.970,W84*45
1642089689033, $GNRMC,160131.00,A,5422.885204,N,01837.211000,E,0.0,,130122,2.9,E,A,V*7E
1642089689033, $GNGNS,160131.00,5422.885204,N,01837.211000,E,AANANN,11,1.0,35.2,34.5,,,V*13
1642089689033, $GNGGA,160131.00,5422.885204,N,01837.211000,E,1,11,1.0,35.2,M,34.5,M,,*4C
1642089690030, $GPGSV,2,1,06,02,41,109,20,12,71,087,20,19,05,047,19,29,32,213,31,1*6A
1642089690030, $GPGSV,2,2,06,31,20,309,22,32,27,268,25,1*67
1642089690030, $GLGSV,1,1,03,79,82,050,16,88,45,046,26,81,59,150,23,1*4A
1642089690030, $GBGSV,2,1,05,28,61,143,25,27,21,196,28,19,04,285,25,13,30,092,23,1*71
1642089690030, $GBGSV,2,2,05,08,33,080,20,1*41
1642089690036, $GNGSA,A,3,02,12,19,29,31,32,,,,,,,1.3,1.0,0.9,1*3A
1642089690036, $GNGSA,A,3,79,81,88,,,,,,,,,,1.3,1.0,0.9,2*3F
1642089690036, $GNGSA,A,3,08,13,,,,,,,,,,,1.3,1.0,0.9,4*34
1642089690036, $GNVTG,,T,,M,0.0,N,0.0,K,A*3D
1642089690036, $GNDTM,P90,,0000.000025,S,00000.000000,W,0.970,W84*45
1642089690036, $GNRMC,160132.00,A,5422.885094,N,01837.209376,E,0.0,,130122,2.9,E,A,V*7D
1642089690036, $GNGNS,160132.00,5422.885094,N,01837.209376,E,AANANN,11,1.0,38.2,34.5,,,V*1D
1642089690036, $GNGGA,160132.00,5422.885094,N,01837.209376,E,1,11,1.0,38.2,M,34.5,M,,*42
1642089691031, $GPGSV,2,1,07,02,41,109,20,12,71,087,20,19,05,047,19,25,67,277,18,1*6E
1642089691031, $GPGSV,2,2,07,29,32,213,33,31,20,309,24,32,27,268,25,1*5A
1642089691031, $GLGSV,1,1,04,82,16,187,15,79,82,050,16,88,45,046,26,81,59,150,26,1*7F
1642089691031, $GBGSV,2,1,05,28,61,143,24,27,21,196,30,19,04,285,25,13,30,092,23,1*79
1642089691031, $GBGSV,2,2,05,08,33,080,20,1*41
1642089691041, $GNGSA,A,3,02,12,19,25,29,31,32,,,,,,1.1,0.8,0.7,1*38
1642089691041, $GNGSA,A,3,79,81,82,88,,,,,,,,,1.1,0.8,0.7,2*30
1642089691041, $GNGSA,A,3,08,13,,,,,,,,,,,1.1,0.8,0.7,4*31
1642089691041, $GNVTG,,T,,M,0.0,N,0.0,K,A*3D
1642089691041, $GNDTM,P90,,0000.000025,S,00000.000000,W,0.970,W84*45
1642089691041, $GNRMC,160133.00,A,5422.884901,N,01837.210484,E,0.0,,130122,2.9,E,A,V*7A
1642089691041, $GNGNS,160133.00,5422.884901,N,01837.210484,E,AANANN,13,0.8,31.1,34.5,,,V*1B
1642089691041, $GNGGA,160133.00,5422.884901,N,01837.210484,E,1,12,0.8,31.1,M,34.5,M,,*45
1642089692038, $GPGSV,2,1,07,02,41,109,20,12,71,087,20,19,05,047,19,25,67,277,18,1*6E
1642089692038, $GPGSV,2,2,07,29,32,213,32,31,20,309,25,32,27,268,27,1*58
1642089692038, $GLGSV,1,1,04,82,16,187,15,79,82,050,16,88,45,046,28,81,59,150,25,1*72
1642089692038, $GBGSV,2,1,05,28,61,143,25,27,21,196,30,19,04,285,25,13,30,092,23,1*78
1642089692038, $GBGSV,2,2,05,08,33,080,20,1*41
1642089692052, $GNGSA,A,3,02,12,19,25,29,31,32,,,,,,1.1,0.8,0.7,1*38
1642089692052, $GNGSA,A,3,79,81,82,88,,,,,,,,,1.1,0.8,0.7,2*30
1642089692052, $GNGSA,A,3,08,13,,,,,,,,,,,1.1,0.8,0.7,4*31
1642089692052, $GNVTG,,T,,M,0.0,N,0.0,K,A*3D
1642089692052, $GNDTM,P90,,0000.000025,S,00000.000000,W,0.970,W84*45
1642089692052, $GNRMC,160134.00,A,5422.885075,N,01837.210522,E,0.0,,130122,2.9,E,A,V*7B
1642089692052, $GNGNS,160134.00,5422.885075,N,01837.210522,E,AANANN,13,0.8,28.2,34.5,,,V*11
1642089692052, $GNGGA,160134.00,5422.885075,N,01837.210522,E,1,12,0.8,28.2,M,34.5,M,,*4F
1642089693037, $GPGSV,2,1,07,02,41,109,23,12,71,087,20,19,05,047,19,25,67,277,22,1*64
1642089693037, $GPGSV,2,2,07,29,32,213,29,31,20,309,26,32,27,268,27,1*51
1642089693037, $GLGSV,1,1,04,82,16,187,15,79,82,050,16,88,45,046,26,81,59,150,25,1*7C
1642089693037, $GBGSV,2,1,05,28,61,143,27,27,21,196,29,19,04,285,24,13,30,092,23,1*73
1642089693037, $GBGSV,2,2,05,08,33,080,20,1*41
1642089693046, $GNGSA,A,3,02,12,19,25,29,31,32,,,,,,1.1,0.8,0.7,1*38
1642089693046, $GNGSA,A,3,79,81,82,88,,,,,,,,,1.1,0.8,0.7,2*30
1642089693046, $GNGSA,A,3,08,13,,,,,,,,,,,1.1,0.8,0.7,4*31
1642089693046, $GNVTG,,T,,M,0.0,N,0.0,K,A*3D
1642089693046, $GNDTM,P90,,0000.000025,S,00000.000000,W,0.970,W84*45
1642089693046, $GNRMC,160135.00,A,5422.884989,N,01837.211134,E,0.0,,130122,2.9,E,A,V*73
1642089693046, $GNGNS,160135.00,5422.884989,N,01837.211134,E,AANANN,13,0.8,24.2,34.5,,,V*15
1642089693046, $GNGGA,160135.00,5422.884989,N,01837.211134,E,1,12,0.8,24.2,M,34.5,M,,*4B
1642089694035, $GPGSV,2,1,07,02,41,109,23,12,71,087,23,19,05,047,20,25,67,277,22,1*6D
1642089694035, $GPGSV,2,2,07,29,32,213,27,31,20,309,25,32,27,268,26,1*5D
1642089694035, $GLGSV,1,1,04,82,16,187,15,79,82,050,16,88,45,046,29,81,59,150,25,1*73
1642089694035, $GBGSV,2,1,05,28,61,143,28,27,21,196,32,19,04,285,25,13,30,092,23,1*77
1642089694035, $GBGSV,2,2,05,08,33,080,20,1*41
1642089694049, $GNGSA,A,3,02,12,19,25,29,31,32,,,,,,1.1,0.8,0.7,1*38
1642089694049, $GNGSA,A,3,79,81,82,88,,,,,,,,,1.1,0.8,0.7,2*30
1642089694049, $GNGSA,A,3,08,13,,,,,,,,,,,1.1,0.8,0.7,4*31
1642089694049, $GNVTG,,T,,M,0.0,N,0.0,K,A*3D
1642089694049, $GNDTM,P90,,0000.000025,S,00000.000000,W,0.970,W84*45
1642089694049, $GNRMC,160136.00,A,5422.884874,N,01837.210564,E,0.0,,130122,2.9,E,A,V*73
1642089694049, $GNGNS,160136.00,5422.884874,N,01837.210564,E,AANANN,13,0.8,25.9,34.5,,,V*1F
1642089694049, $GNGGA,160136.00,5422.884874,N,01837.210564,E,1,12,0.8,25.9,M,34.5,M,,*41
1642089695037, $GPGSV,2,1,07,02,41,109,21,12,71,087,23,19,05,047,22,25,67,277,21,1*6E
1642089695037, $GPGSV,2,2,07,29,32,213,28,31,20,309,22,32,27,268,28,1*5B
1642089695037, $GLGSV,2,1,05,78,30,116,18,82,16,187,15,79,82,050,16,88,45,046,27,1*7A
1642089695037, $GLGSV,2,2,05,81,59,150,25,1*4B
1642089695037, $GBGSV,2,1,05,28,61,143,29,27,21,196,32,19,04,285,24,13,30,092,23,1*77
1642089695037, $GBGSV,2,2,05,08,33,080,20,1*41
1642089695051, $GNGSA,A,3,02,12,19,25,29,31,32,,,,,,1.1,0.8,0.7,1*38
1642089695051, $GNGSA,A,3,78,79,81,82,88,,,,,,,,1.1,0.8,0.7,2*3F
1642089695051, $GNGSA,A,3,08,13,,,,,,,,,,,1.1,0.8,0.7,4*31
1642089695051, $GNVTG,,T,,M,0.0,N,0.0,K,A*3D
1642089695051, $GNDTM,P90,,0000.000025,S,00000.000000,W,0.970,W84*45
1642089695051, $GNRMC,160137.00,A,5422.884607,N,01837.212422,E,0.0,,130122,2.9,E,A,V*79
1642089695051, $GNGNS,160137.00,5422.884607,N,01837.212422,E,AANANN,14,0.8,18.3,34.5,,,V*16
1642089695051, $GNGGA,160137.00,5422.884607,N,01837.212422,E,1,12,0.8,18.3,M,34.5,M,,*4F
1642089696039, $GPGSV,2,1,07,02,41,109,21,12,71,087,22,19,05,047,21,25,67,277,22,1*6F
1642089696039, $GPGSV,2,2,07,29,32,213,29,31,20,309,25,32,27,268,27,1*52
1642089696039, $GLGSV,2,1,05,78,30,116,18,82,16,187,15,79,82,050,16,88,45,046,25,1*78
1642089696039, $GLGSV,2,2,05,81,59,150,25,1*4B
1642089696039, $GBGSV,2,1,05,28,61,143,28,27,21,196,27,19,04,285,24,13,30,092,21,1*70
1642089696039, $GBGSV,2,2,05,08,33,080,20,1*41
1642089696055, $GNGSA,A,3,02,12,19,25,29,31,32,,,,,,1.1,0.8,0.7,1*38
1642089696055, $GNGSA,A,3,78,79,81,82,88,,,,,,,,1.1,0.8,0.7,2*3F
1642089696055, $GNGSA,A,3,08,13,,,,,,,,,,,1.1,0.8,0.7,4*31
1642089696055, $GNVTG,,T,,M,0.0,N,0.0,K,A*3D
1642089696055, $GNDTM,P90,,0000.000025,S,00000.000000,W,0.970,W84*45
1642089696055, $GNRMC,160138.00,A,5422.884806,N,01837.211005,E,0.0,,130122,2.9,E,A,V*7B
1642089696055, $GNGNS,160138.00,5422.884806,N,01837.211005,E,AANANN,14,0.8,24.7,34.5,,,V*1F
1642089696055, $GNGGA,160138.00,5422.884806,N,01837.211005,E,1,12,0.8,24.7,M,34.5,M,,*46
1642089697031, $GPGSV,2,1,07,02,41,109,21,12,71,087,21,19,05,047,21,25,67,277,22,1*6C
1642089697031, $GPGSV,2,2,07,29,32,213,27,31,20,309,24,32,27,268,26,1*5C
1642089697031, $GLGSV,2,1,05,78,30,116,19,82,16,187,15,79,82,050,16,88,45,046,26,1*7A
1642089697031, $GLGSV,2,2,05,81,59,150,26,1*48
1642089697031, $GBGSV,2,1,05,28,61,143,27,27,21,196,27,19,04,285,26,13,30,092,23,1*7F
1642089697031, $GBGSV,2,2,05,08,33,080,20,1*41
1642089697035, $GNGSA,A,3,02,12,19,25,29,31,32,,,,,,1.2,0.9,0.8,1*35
1642089697035, $GNGSA,A,3,78,81,88,,,,,,,,,,1.2,0.9,0.8,2*36
1642089697035, $GNGSA,A,3,08,13,,,,,,,,,,,1.2,0.9,0.8,4*3C
1642089697035, $GNVTG,,T,,M,0.0,N,0.0,K,A*3D
1642089697035, $GNDTM,P90,,0000.000025,S,00000.000000,W,0.970,W84*45
1642089697035, $GNRMC,160139.00,A,5422.884316,N,01837.212527,E,0.0,,130122,2.9,E,A,V*76
1642089697035, $GNGNS,160139.00,5422.884316,N,01837.212527,E,AANANN,12,0.9,19.5,34.5,,,V*19
1642089697035, $GNGGA,160139.00,5422.884316,N,01837.212527,E,1,12,0.9,19.5,M,34.5,M,,*46
1642089698034, $GPGSV,2,1,07,02,41,109,19,12,71,087,24,19,05,047,19,25,67,277,22,1*69
1642089698034, $GPGSV,2,2,07,29,32,213,26,31,20,309,22,32,27,268,26,1*5B
1642089698034, $GLGSV,2,1,05,78,30,116,19,82,16,187,15,79,82,050,16,88,45,046,28,1*74
1642089698034, $GLGSV,2,2,05,81,59,150,24,1*4A
1642089698034, $GBGSV,2,1,05,28,61,143,31,27,21,196,30,19,04,285,25,13,30,092,23,1*7D
1642089698034, $GBGSV,2,2,05,08,33,080,20,1*41
1642089698053, $GNGSA,A,3,02,12,19,25,29,31,32,,,,,,1.2,0.9,0.8,1*35
1642089698053, $GNGSA,A,3,78,81,88,,,,,,,,,,1.2,0.9,0.8,2*36
1642089698053, $GNGSA,A,3,08,13,,,,,,,,,,,1.2,0.9,0.8,4*3C
1642089698053, $GNVTG,,T,,M,0.0,N,0.0,K,A*3D
1642089698053, $GNDTM,P90,,0000.000025,S,00000.000000,W,0.970,W84*45
1642089698053, $GNRMC,160140.00,A,5422.884209,N,01837.212738,E,0.0,,130122,2.9,E,A,V*7B
1642089698053, $GNGNS,160140.00,5422.884209,N,01837.212738,E,AANANN,12,0.9,18.4,34.5,,,V*14
1642089698053, $GNGGA,160140.00,5422.884209,N,01837.212738,E,1,12,0.9,18.4,M,34.5,M,,*4B
1642089699035, $GPGSV,2,1,07,02,41,109,19,12,71,087,23,19,05,047,19,25,67,277,22,1*6E
1642089699035, $GPGSV,2,2,07,29,32,213,26,31,20,309,24,32,27,268,25,1*5E
1642089699035, $GLGSV,2,1,05,78,30,116,19,82,16,187,15,79,82,050,16,88,45,046,29,1*75
1642089699035, $GLGSV,2,2,05,81,59,150,25,1*4B
1642089699035, $GBGSV,2,1,05,28,61,143,29,27,21,196,31,19,04,285,24,13,30,092,21,1*76
1642089699035, $GBGSV,2,2,05,08,33,080,20,1*41
1642089699052, $GNGSA,A,3,02,12,19,25,29,31,32,,,,,,1.2,0.9,0.8,1*35
1642089699052, $GNGSA,A,3,78,81,88,,,,,,,,,,1.2,0.9,0.8,2*36
1642089699052, $GNGSA,A,3,08,13,,,,,,,,,,,1.2,0.9,0.8,4*3C
1642089699052, $GNVTG,,T,,M,0.0,N,0.0,K,A*3D
1642089699052, $GNDTM,P90,,0000.000025,S,00000.000000,W,0.970,W84*45
1642089699052, $GNRMC,160141.00,A,5422.884085,N,01837.213137,E,0.0,,130122,2.9,E,A,V*74
1642089699052, $GNGNS,160141.00,5422.884085,N,01837.213137,E,AANANN,12,0.9,16.6,34.5,,,V*17
1642089699052, $GNGGA,160141.00,5422.884085,N,01837.213137,E,1,12,0.9,16.6,M,34.5,M,,*48
1642089700035, $GPGSV,2,1,07,02,41,109,20,12,71,087,24,19,05,047,21,25,67,277,22,1*68
1642089700035, $GPGSV,2,2,07,29,32,213,28,31,20,309,26,32,27,268,26,1*51
1642089700035, $GLGSV,2,1,05,78,30,116,19,82,16,187,16,79,82,050,16,88,45,046,27,1*78
1642089700035, $GLGSV,2,2,05,81,59,150,24,1*4A
1642089700035, $GBGSV,2,1,05,28,61,143,28,27,21,196,30,19,04,285,25,13,30,092,21,1*77
1642089700035, $GBGSV,2,2,05,08,33,080,20,1*41
1642089700050, $GNGSA,A,3,02,12,19,25,29,31,32,,,,,,1.1,0.8,0.8,1*37
1642089700050, $GNGSA,A,3,78,81,82,88,,,,,,,,,1.1,0.8,0.8,2*3E
1642089700050, $GNGSA,A,3,08,13,,,,,,,,,,,1.1,0.8,0.8,4*3E
1642089700050, $GNVTG,,T,,M,0.0,N,0.0,K,A*3D
1642089700050, $GNDTM,P90,,0000.000025,S,00000.000000,W,0.970,W84*45
1642089700050, $GNRMC,160142.00,A,5422.884295,N,01837.212872,E,0.0,,130122,2.9,E,A,V*7D
1642089700050, $GNGNS,160142.00,5422.884295,N,01837.212872,E,AANANN,13,0.8,18.3,34.5,,,V*15
1642089700050, $GNGGA,160142.00,5422.884295,N,01837.212872,E,1,12,0.8,18.3,M,34.5,M,,*4B
